[
    {
        "city": "Cairo", 
        "lat": "30.0561", 
        "lng": "31.2394", 
        "country": "Egypt", 
        "iso2": "EG", 
        "admin_name": "Al Q\u0101hirah", 
        "capital": "primary", 
        "population": "19372000", 
        "population_proper": "9500000"
    }, 
    {
        "city": "Alexandria", 
        "lat": "31.2000", 
        "lng": "29.9167", 
        "country": "Egypt", 
        "iso2": "EG", 
        "admin_name": "Al Iskandar\u012byah", 
        "capital": "admin", 
        "population": "4870000", 
        "population_proper": "4870000"
    }, 
    {
        "city": "Giza", 
        "lat": "29.9870", 
        "lng": "31.2118", 
        "country": "Egypt", 
        "iso2": "EG", 
        "admin_name": "Al J\u012bzah", 
        "capital": "admin", 
        "population": "3021542", 
        "population_proper": "3021542"
    }, 
    {
        "city": "Shubr\u0101 al Khaymah", 
        "lat": "30.1286", 
        "lng": "31.2422", 
        "country": "Egypt", 
        "iso2": "EG", 
        "admin_name": "Al Qaly\u016bb\u012byah", 
        "capital": "", 
        "population": "1025569", 
        "population_proper": "1025569"
    }, 
    {
        "city": "\u1e28alw\u0101n", 
        "lat": "29.8419", 
        "lng": "31.3342", 
        "country": "Egypt", 
        "iso2": "EG", 
        "admin_name": "Al Q\u0101hirah", 
        "capital": "", 
        "population": "619293", 
        "population_proper": "619293"
    }, 
    {
        "city": "Al Ma\u1e29allah al Kubr\u00e1", 
        "lat": "30.9667", 
        "lng": "31.1667", 
        "country": "Egypt", 
        "iso2": "EG", 
        "admin_name": "Al Gharb\u012byah", 
        "capital": "", 
        "population": "543271", 
        "population_proper": "543271"
    }, 
    {
        "city": "Port Said", 
        "lat": "31.2500", 
        "lng": "32.2833", 
        "country": "Egypt", 
        "iso2": "EG", 
        "admin_name": "B\u016br Sa\u2018\u012bd", 
        "capital": "admin", 
        "population": "524433", 
        "population_proper": "524433"
    }, 
    {
        "city": "Mad\u012bnat as S\u0101dis min Ukt\u016bbar", 
        "lat": "29.9361", 
        "lng": "30.9269", 
        "country": "Egypt", 
        "iso2": "EG", 
        "admin_name": "Al J\u012bzah", 
        "capital": "", 
        "population": "500000", 
        "population_proper": "500000"
    }, 
    {
        "city": "Suez", 
        "lat": "29.9667", 
        "lng": "32.5333", 
        "country": "Egypt", 
        "iso2": "EG", 
        "admin_name": "As Suways", 
        "capital": "admin", 
        "population": "485342", 
        "population_proper": "485342"
    }, 
    {
        "city": "Al Man\u015f\u016brah", 
        "lat": "31.0500", 
        "lng": "31.3833", 
        "country": "Egypt", 
        "iso2": "EG", 
        "admin_name": "Ad Daqahl\u012byah", 
        "capital": "admin", 
        "population": "439348", 
        "population_proper": "439348"
    }, 
    {
        "city": "\u0162an\u0163\u0101", 
        "lat": "30.7833", 
        "lng": "31.0000", 
        "country": "Egypt", 
        "iso2": "EG", 
        "admin_name": "Al Gharb\u012byah", 
        "capital": "admin", 
        "population": "429503", 
        "population_proper": "429503"
    }, 
    {
        "city": "Asy\u016b\u0163", 
        "lat": "27.1869", 
        "lng": "31.1714", 
        "country": "Egypt", 
        "iso2": "EG", 
        "admin_name": "Asy\u016b\u0163", 
        "capital": "admin", 
        "population": "389307", 
        "population_proper": "389307"
    }, 
    {
        "city": "Al Fayy\u016bm", 
        "lat": "29.3000", 
        "lng": "30.8333", 
        "country": "Egypt", 
        "iso2": "EG", 
        "admin_name": "Al Fayy\u016bm", 
        "capital": "admin", 
        "population": "315940", 
        "population_proper": "315940"
    }, 
    {
        "city": "Az Zaq\u0101z\u012bq", 
        "lat": "30.5667", 
        "lng": "31.5000", 
        "country": "Egypt", 
        "iso2": "EG", 
        "admin_name": "Ash Sharq\u012byah", 
        "capital": "admin", 
        "population": "302840", 
        "population_proper": "302840"
    }, 
    {
        "city": "Ismailia", 
        "lat": "30.5833", 
        "lng": "32.2667", 
        "country": "Egypt", 
        "iso2": "EG", 
        "admin_name": "Al Ism\u0101\u2018\u012bl\u012byah", 
        "capital": "admin", 
        "population": "293184", 
        "population_proper": "293184"
    }, 
    {
        "city": "Asw\u0101n", 
        "lat": "24.0889", 
        "lng": "32.8997", 
        "country": "Egypt", 
        "iso2": "EG", 
        "admin_name": "Asw\u0101n", 
        "capital": "admin", 
        "population": "267913", 
        "population_proper": "267913"
    }, 
    {
        "city": "Kafr ad Daww\u0101r", 
        "lat": "31.1417", 
        "lng": "30.1272", 
        "country": "Egypt", 
        "iso2": "EG", 
        "admin_name": "Al Bu\u1e29ayrah", 
        "capital": "", 
        "population": "262748", 
        "population_proper": "262748"
    }, 
    {
        "city": "Damanh\u016br", 
        "lat": "31.0500", 
        "lng": "30.4667", 
        "country": "Egypt", 
        "iso2": "EG", 
        "admin_name": "Al Bu\u1e29ayrah", 
        "capital": "admin", 
        "population": "244043", 
        "population_proper": "244043"
    }, 
    {
        "city": "Al Miny\u0101", 
        "lat": "28.0833", 
        "lng": "30.7500", 
        "country": "Egypt", 
        "iso2": "EG", 
        "admin_name": "Al Miny\u0101", 
        "capital": "admin", 
        "population": "236043", 
        "population_proper": "236043"
    }, 
    {
        "city": "Damietta", 
        "lat": "31.4167", 
        "lng": "31.8167", 
        "country": "Egypt", 
        "iso2": "EG", 
        "admin_name": "Dumy\u0101\u0163", 
        "capital": "admin", 
        "population": "206664", 
        "population_proper": "206664"
    }, 
    {
        "city": "Luxor", 
        "lat": "25.6969", 
        "lng": "32.6422", 
        "country": "Egypt", 
        "iso2": "EG", 
        "admin_name": "Al Uq\u015fur", 
        "capital": "admin", 
        "population": "202232", 
        "population_proper": "202232"
    }, 
    {
        "city": "Qin\u0101", 
        "lat": "26.1667", 
        "lng": "32.7167", 
        "country": "Egypt", 
        "iso2": "EG", 
        "admin_name": "Qin\u0101", 
        "capital": "admin", 
        "population": "201191", 
        "population_proper": "201191"
    }, 
    {
        "city": "S\u016bh\u0101j", 
        "lat": "26.5606", 
        "lng": "31.6917", 
        "country": "Egypt", 
        "iso2": "EG", 
        "admin_name": "S\u016bh\u0101j", 
        "capital": "admin", 
        "population": "193931", 
        "population_proper": "193931"
    }, 
    {
        "city": "Ban\u012b Suwayf", 
        "lat": "29.0667", 
        "lng": "31.0833", 
        "country": "Egypt", 
        "iso2": "EG", 
        "admin_name": "Ban\u012b Suwayf", 
        "capital": "admin", 
        "population": "193048", 
        "population_proper": "193048"
    }, 
    {
        "city": "Shib\u012bn al Kawm", 
        "lat": "30.5920", 
        "lng": "30.9000", 
        "country": "Egypt", 
        "iso2": "EG", 
        "admin_name": "Al Min\u016bf\u012byah", 
        "capital": "admin", 
        "population": "182900", 
        "population_proper": "182900"
    }, 
    {
        "city": "Al \u2018Ar\u012bsh", 
        "lat": "31.1249", 
        "lng": "33.8006", 
        "country": "Egypt", 
        "iso2": "EG", 
        "admin_name": "Sham\u0101l S\u012bn\u0101\u2019", 
        "capital": "admin", 
        "population": "178651", 
        "population_proper": "128855"
    }, 
    {
        "city": "Al Ghardaqah", 
        "lat": "27.2578", 
        "lng": "33.8117", 
        "country": "Egypt", 
        "iso2": "EG", 
        "admin_name": "Al Ba\u1e29r al A\u1e29mar", 
        "capital": "admin", 
        "population": "160901", 
        "population_proper": "160901"
    }, 
    {
        "city": "Banh\u0101", 
        "lat": "30.4628", 
        "lng": "31.1797", 
        "country": "Egypt", 
        "iso2": "EG", 
        "admin_name": "Al Qaly\u016bb\u012byah", 
        "capital": "admin", 
        "population": "157701", 
        "population_proper": "157701"
    }, 
    {
        "city": "Kafr ash Shaykh", 
        "lat": "31.1000", 
        "lng": "30.9500", 
        "country": "Egypt", 
        "iso2": "EG", 
        "admin_name": "Kafr ash Shaykh", 
        "capital": "admin", 
        "population": "147393", 
        "population_proper": "147393"
    }, 
    {
        "city": "Mars\u00e1 Ma\u0163r\u016b\u1e29", 
        "lat": "31.3333", 
        "lng": "27.2333", 
        "country": "Egypt", 
        "iso2": "EG", 
        "admin_name": "Ma\u0163r\u016b\u1e29", 
        "capital": "admin", 
        "population": "68339", 
        "population_proper": "68339"
    }, 
    {
        "city": "Al Kh\u0101rijah", 
        "lat": "25.4400", 
        "lng": "30.5500", 
        "country": "Egypt", 
        "iso2": "EG", 
        "admin_name": "Al W\u0101d\u012b al Jad\u012bd", 
        "capital": "admin", 
        "population": "49991", 
        "population_proper": "49991"
    }, 
    {
        "city": "A\u0163 \u0162\u016br", 
        "lat": "28.2333", 
        "lng": "33.6167", 
        "country": "Egypt", 
        "iso2": "EG", 
        "admin_name": "Jan\u016bb S\u012bn\u0101\u2019", 
        "capital": "admin", 
        "population": "12733", 
        "population_proper": "12733"
    }, 
    {
        "city": "Rafa\u1e29", 
        "lat": "31.2820", 
        "lng": "34.2387", 
        "country": "Egypt", 
        "iso2": "EG", 
        "admin_name": "Sham\u0101l S\u012bn\u0101\u2019", 
        "capital": "minor", 
        "population": "", 
        "population_proper": ""
    }, 
    {
        "city": "Ash Shaykh Zuwayd", 
        "lat": "31.2119", 
        "lng": "34.1106", 
        "country": "Egypt", 
        "iso2": "EG", 
        "admin_name": "Sham\u0101l S\u012bn\u0101\u2019", 
        "capital": "minor", 
        "population": "", 
        "population_proper": ""
    }, 
    {
        "city": "Bi\u2019r al \u2018Abd", 
        "lat": "31.0000", 
        "lng": "33.0167", 
        "country": "Egypt", 
        "iso2": "EG", 
        "admin_name": "Sham\u0101l S\u012bn\u0101\u2019", 
        "capital": "minor", 
        "population": "", 
        "population_proper": ""
    }
]