[
    {
        "city": "Doha", 
        "lat": "25.3000", 
        "lng": "51.5333", 
        "country": "Qatar", 
        "iso2": "QA", 
        "admin_name": "Ad Daw\u1e29ah", 
        "capital": "primary", 
        "population": "1312947", 
        "population_proper": "1312947"
    }, 
    {
        "city": "Nu\u2018ayjah", 
        "lat": "25.2462", 
        "lng": "51.5323", 
        "country": "Qatar", 
        "iso2": "QA", 
        "admin_name": "Ad Daw\u1e29ah", 
        "capital": "", 
        "population": "", 
        "population_proper": ""
    }, 
    {
        "city": "As Sayl\u012byah", 
        "lat": "25.2136", 
        "lng": "51.3731", 
        "country": "Qatar", 
        "iso2": "QA", 
        "admin_name": "Ar Rayy\u0101n", 
        "capital": "", 
        "population": "", 
        "population_proper": ""
    }, 
    {
        "city": "Ra\u2019s Ab\u016b Fin\u0163\u0101s", 
        "lat": "25.2040", 
        "lng": "51.6176", 
        "country": "Qatar", 
        "iso2": "QA", 
        "admin_name": "Ad Daw\u1e29ah", 
        "capital": "", 
        "population": "", 
        "population_proper": ""
    }, 
    {
        "city": "Al Wakrah", 
        "lat": "25.1800", 
        "lng": "51.6100", 
        "country": "Qatar", 
        "iso2": "QA", 
        "admin_name": "Al Wakrah", 
        "capital": "admin", 
        "population": "", 
        "population_proper": ""
    }, 
    {
        "city": "Ar Rayy\u0101n", 
        "lat": "25.2919", 
        "lng": "51.4244", 
        "country": "Qatar", 
        "iso2": "QA", 
        "admin_name": "Ar Rayy\u0101n", 
        "capital": "admin", 
        "population": "", 
        "population_proper": ""
    }, 
    {
        "city": "Al Khawr", 
        "lat": "25.6839", 
        "lng": "51.5058", 
        "country": "Qatar", 
        "iso2": "QA", 
        "admin_name": "Al Khawr wa adh Dhakh\u012brah", 
        "capital": "admin", 
        "population": "", 
        "population_proper": ""
    }, 
    {
        "city": "Ash Sh\u012b\u1e29\u0101n\u012byah", 
        "lat": "25.3709", 
        "lng": "51.2226", 
        "country": "Qatar", 
        "iso2": "QA", 
        "admin_name": "Ar Rayy\u0101n", 
        "capital": "admin", 
        "population": "", 
        "population_proper": ""
    }, 
    {
        "city": "Umm \u015eal\u0101l \u2018Al\u012b", 
        "lat": "25.4697", 
        "lng": "51.3975", 
        "country": "Qatar", 
        "iso2": "QA", 
        "admin_name": "Umm \u015eal\u0101l", 
        "capital": "admin", 
        "population": "", 
        "population_proper": ""
    }, 
    {
        "city": "Az\u0327 Z\u0327a\u2018\u0101yin", 
        "lat": "25.5774", 
        "lng": "51.4831", 
        "country": "Qatar", 
        "iso2": "QA", 
        "admin_name": "Az\u0327 Z\u0327a\u2018\u0101yin", 
        "capital": "admin", 
        "population": "", 
        "population_proper": ""
    }, 
    {
        "city": "Mad\u012bnat ash Sham\u0101l", 
        "lat": "26.1293", 
        "lng": "51.2009", 
        "country": "Qatar", 
        "iso2": "QA", 
        "admin_name": "Ash Sham\u0101l", 
        "capital": "admin", 
        "population": "", 
        "population_proper": ""
    }, 
    {
        "city": "Adh Dhakh\u012brah", 
        "lat": "25.7320", 
        "lng": "51.5438", 
        "country": "Qatar", 
        "iso2": "QA", 
        "admin_name": "Al Khawr wa adh Dhakh\u012brah", 
        "capital": "", 
        "population": "", 
        "population_proper": ""
    }, 
    {
        "city": "Simsimah", 
        "lat": "25.7951", 
        "lng": "51.4048", 
        "country": "Qatar", 
        "iso2": "QA", 
        "admin_name": "Al Khawr wa adh Dhakh\u012brah", 
        "capital": "", 
        "population": "", 
        "population_proper": ""
    }, 
    {
        "city": "Al Wa\u2018b", 
        "lat": "25.8408", 
        "lng": "51.4632", 
        "country": "Qatar", 
        "iso2": "QA", 
        "admin_name": "Al Khawr wa adh Dhakh\u012brah", 
        "capital": "", 
        "population": "", 
        "population_proper": ""
    }, 
    {
        "city": "Ash Shafalla\u1e29\u012byah", 
        "lat": "25.7603", 
        "lng": "51.3913", 
        "country": "Qatar", 
        "iso2": "QA", 
        "admin_name": "Al Khawr wa adh Dhakh\u012brah", 
        "capital": "", 
        "population": "", 
        "population_proper": ""
    }, 
    {
        "city": "Umm al Quh\u0101b", 
        "lat": "25.7669", 
        "lng": "51.4713", 
        "country": "Qatar", 
        "iso2": "QA", 
        "admin_name": "Al Khawr wa adh Dhakh\u012brah", 
        "capital": "", 
        "population": "", 
        "population_proper": ""
    }, 
    {
        "city": "Umm Birkah", 
        "lat": "25.7472", 
        "lng": "51.4508", 
        "country": "Qatar", 
        "iso2": "QA", 
        "admin_name": "Al Khawr wa adh Dhakh\u012brah", 
        "capital": "", 
        "population": "", 
        "population_proper": ""
    }, 
    {
        "city": "Al Khuray\u015f", 
        "lat": "25.8569", 
        "lng": "51.4358", 
        "country": "Qatar", 
        "iso2": "QA", 
        "admin_name": "Al Khawr wa adh Dhakh\u012brah", 
        "capital": "", 
        "population": "", 
        "population_proper": ""
    }, 
    {
        "city": "Al \u1e28uwaylah", 
        "lat": "25.9489", 
        "lng": "51.4651", 
        "country": "Qatar", 
        "iso2": "QA", 
        "admin_name": "Ash Sham\u0101l", 
        "capital": "", 
        "population": "", 
        "population_proper": ""
    }, 
    {
        "city": "Umm Qur\u016bn", 
        "lat": "25.2336", 
        "lng": "51.3304", 
        "country": "Qatar", 
        "iso2": "QA", 
        "admin_name": "Ar Rayy\u0101n", 
        "capital": "", 
        "population": "", 
        "population_proper": ""
    }, 
    {
        "city": "Mu\u2018aydhir Raw\u1e11at R\u0101shid", 
        "lat": "25.2617", 
        "lng": "51.3968", 
        "country": "Qatar", 
        "iso2": "QA", 
        "admin_name": "Ar Rayy\u0101n", 
        "capital": "", 
        "population": "", 
        "population_proper": ""
    }, 
    {
        "city": "Al Waqbah", 
        "lat": "25.3050", 
        "lng": "51.4014", 
        "country": "Qatar", 
        "iso2": "QA", 
        "admin_name": "Ar Rayy\u0101n", 
        "capital": "", 
        "population": "", 
        "population_proper": ""
    }, 
    {
        "city": "\u015ein\u2018 al \u1e28umayd\u012b", 
        "lat": "25.3697", 
        "lng": "51.3369", 
        "country": "Qatar", 
        "iso2": "QA", 
        "admin_name": "Ar Rayy\u0101n", 
        "capital": "", 
        "population": "", 
        "population_proper": ""
    }, 
    {
        "city": "Zar\u2018 al \u2018At\u012byah", 
        "lat": "25.3256", 
        "lng": "51.3491", 
        "country": "Qatar", 
        "iso2": "QA", 
        "admin_name": "Ar Rayy\u0101n", 
        "capital": "", 
        "population": "", 
        "population_proper": ""
    }, 
    {
        "city": "Umm al Af\u0101\u2018\u012b", 
        "lat": "25.3588", 
        "lng": "51.3336", 
        "country": "Qatar", 
        "iso2": "QA", 
        "admin_name": "Ar Rayy\u0101n", 
        "capital": "", 
        "population": "", 
        "population_proper": ""
    }, 
    {
        "city": "Umm Qayn", 
        "lat": "25.7129", 
        "lng": "51.4989", 
        "country": "Qatar", 
        "iso2": "QA", 
        "admin_name": "Al Khawr wa adh Dhakh\u012brah", 
        "capital": "", 
        "population": "", 
        "population_proper": ""
    }, 
    {
        "city": "Ab\u016b Khar\u0101b", 
        "lat": "25.7098", 
        "lng": "51.5897", 
        "country": "Qatar", 
        "iso2": "QA", 
        "admin_name": "Al Khawr wa adh Dhakh\u012brah", 
        "capital": "", 
        "population": "", 
        "population_proper": ""
    }, 
    {
        "city": "Umm \u2018An\u012bq", 
        "lat": "25.7139", 
        "lng": "51.5316", 
        "country": "Qatar", 
        "iso2": "QA", 
        "admin_name": "Al Khawr wa adh Dhakh\u012brah", 
        "capital": "", 
        "population": "", 
        "population_proper": ""
    }, 
    {
        "city": "Al Jubayl", 
        "lat": "25.7013", 
        "lng": "51.5854", 
        "country": "Qatar", 
        "iso2": "QA", 
        "admin_name": "Al Khawr wa adh Dhakh\u012brah", 
        "capital": "", 
        "population": "", 
        "population_proper": ""
    }, 
    {
        "city": "Al \u2018Uqdah", 
        "lat": "25.6854", 
        "lng": "51.4671", 
        "country": "Qatar", 
        "iso2": "QA", 
        "admin_name": "Al Khawr wa adh Dhakh\u012brah", 
        "capital": "", 
        "population": "", 
        "population_proper": ""
    }, 
    {
        "city": "Al Mas\u0101kir \u2018Uraydah", 
        "lat": "25.7322", 
        "lng": "51.5886", 
        "country": "Qatar", 
        "iso2": "QA", 
        "admin_name": "Al Khawr wa adh Dhakh\u012brah", 
        "capital": "", 
        "population": "", 
        "population_proper": ""
    }, 
    {
        "city": "Ash Shafalla\u1e29\u012byah", 
        "lat": "25.6492", 
        "lng": "51.3695", 
        "country": "Qatar", 
        "iso2": "QA", 
        "admin_name": "Al Khawr wa adh Dhakh\u012brah", 
        "capital": "", 
        "population": "", 
        "population_proper": ""
    }, 
    {
        "city": "Musay\u2018\u012bd", 
        "lat": "24.9923", 
        "lng": "51.5507", 
        "country": "Qatar", 
        "iso2": "QA", 
        "admin_name": "Al Wakrah", 
        "capital": "", 
        "population": "", 
        "population_proper": ""
    }, 
    {
        "city": "Laq\u0163ah", 
        "lat": "25.3413", 
        "lng": "51.3099", 
        "country": "Qatar", 
        "iso2": "QA", 
        "admin_name": "Ar Rayy\u0101n", 
        "capital": "", 
        "population": "", 
        "population_proper": ""
    }, 
    {
        "city": "Ab\u016b \u015euwayy", 
        "lat": "25.6970", 
        "lng": "51.2598", 
        "country": "Qatar", 
        "iso2": "QA", 
        "admin_name": "Al Khawr wa adh Dhakh\u012brah", 
        "capital": "", 
        "population": "", 
        "population_proper": ""
    }, 
    {
        "city": "Umm al Qub\u016br", 
        "lat": "25.3653", 
        "lng": "51.4369", 
        "country": "Qatar", 
        "iso2": "QA", 
        "admin_name": "Umm \u015eal\u0101l", 
        "capital": "", 
        "population": "", 
        "population_proper": ""
    }, 
    {
        "city": "\u2018Ayn ar Rukhay\u015fah", 
        "lat": "25.3310", 
        "lng": "51.2492", 
        "country": "Qatar", 
        "iso2": "QA", 
        "admin_name": "Ar Rayy\u0101n", 
        "capital": "", 
        "population": "", 
        "population_proper": ""
    }, 
    {
        "city": "Al Wabrah", 
        "lat": "25.3391", 
        "lng": "51.1733", 
        "country": "Qatar", 
        "iso2": "QA", 
        "admin_name": "Ar Rayy\u0101n", 
        "capital": "", 
        "population": "", 
        "population_proper": ""
    }, 
    {
        "city": "Al \u1e28asan\u012byah", 
        "lat": "25.3398", 
        "lng": "51.2958", 
        "country": "Qatar", 
        "iso2": "QA", 
        "admin_name": "Ar Rayy\u0101n", 
        "capital": "", 
        "population": "", 
        "population_proper": ""
    }, 
    {
        "city": "As Samr\u012byah", 
        "lat": "25.3646", 
        "lng": "51.2807", 
        "country": "Qatar", 
        "iso2": "QA", 
        "admin_name": "Ar Rayy\u0101n", 
        "capital": "", 
        "population": "", 
        "population_proper": ""
    }, 
    {
        "city": "Al Khurayb", 
        "lat": "25.4357", 
        "lng": "51.2202", 
        "country": "Qatar", 
        "iso2": "QA", 
        "admin_name": "Ar Rayy\u0101n", 
        "capital": "", 
        "population": "", 
        "population_proper": ""
    }, 
    {
        "city": "Umm al Quh\u0101b", 
        "lat": "25.3741", 
        "lng": "51.2933", 
        "country": "Qatar", 
        "iso2": "QA", 
        "admin_name": "Ar Rayy\u0101n", 
        "capital": "", 
        "population": "", 
        "population_proper": ""
    }, 
    {
        "city": "Al B\u0101hiyah", 
        "lat": "25.1283", 
        "lng": "51.4186", 
        "country": "Qatar", 
        "iso2": "QA", 
        "admin_name": "Al Wakrah", 
        "capital": "", 
        "population": "", 
        "population_proper": ""
    }, 
    {
        "city": "Al Mash\u0101f", 
        "lat": "25.1753", 
        "lng": "51.5690", 
        "country": "Qatar", 
        "iso2": "QA", 
        "admin_name": "Al Wakrah", 
        "capital": "", 
        "population": "", 
        "population_proper": ""
    }, 
    {
        "city": "Nab\u0101t al U\u015fayl", 
        "lat": "25.1097", 
        "lng": "51.5339", 
        "country": "Qatar", 
        "iso2": "QA", 
        "admin_name": "Al Wakrah", 
        "capital": "", 
        "population": "", 
        "population_proper": ""
    }, 
    {
        "city": "Al Wukayr", 
        "lat": "25.1511", 
        "lng": "51.5372", 
        "country": "Qatar", 
        "iso2": "QA", 
        "admin_name": "Al Wakrah", 
        "capital": "", 
        "population": "", 
        "population_proper": ""
    }, 
    {
        "city": "Raw\u1e11at al \u2018Aj\u016bz", 
        "lat": "25.5462", 
        "lng": "51.3722", 
        "country": "Qatar", 
        "iso2": "QA", 
        "admin_name": "Umm \u015eal\u0101l", 
        "capital": "", 
        "population": "", 
        "population_proper": ""
    }, 
    {
        "city": "Umm al Ab\u0101riq", 
        "lat": "25.4775", 
        "lng": "51.3607", 
        "country": "Qatar", 
        "iso2": "QA", 
        "admin_name": "Umm \u015eal\u0101l", 
        "capital": "", 
        "population": "", 
        "population_proper": ""
    }, 
    {
        "city": "Jar\u012b Ibn \u2018Abd al Wahh\u0101b", 
        "lat": "25.4380", 
        "lng": "51.2698", 
        "country": "Qatar", 
        "iso2": "QA", 
        "admin_name": "Umm \u015eal\u0101l", 
        "capital": "", 
        "population": "", 
        "population_proper": ""
    }, 
    {
        "city": "A\u015f \u015ean\u012b\u2018", 
        "lat": "25.5427", 
        "lng": "51.4081", 
        "country": "Qatar", 
        "iso2": "QA", 
        "admin_name": "Umm \u015eal\u0101l", 
        "capital": "", 
        "population": "", 
        "population_proper": ""
    }, 
    {
        "city": "Umm \u2018Ubayr\u012byah", 
        "lat": "25.4937", 
        "lng": "51.3754", 
        "country": "Qatar", 
        "iso2": "QA", 
        "admin_name": "Umm \u015eal\u0101l", 
        "capital": "", 
        "population": "", 
        "population_proper": ""
    }, 
    {
        "city": "Burj Barz\u0101n", 
        "lat": "25.5247", 
        "lng": "51.3037", 
        "country": "Qatar", 
        "iso2": "QA", 
        "admin_name": "Umm \u015eal\u0101l", 
        "capital": "", 
        "population": "", 
        "population_proper": ""
    }, 
    {
        "city": "Umm \u015eal\u0101l Mu\u1e29ammad", 
        "lat": "25.4152", 
        "lng": "51.4065", 
        "country": "Qatar", 
        "iso2": "QA", 
        "admin_name": "Umm \u015eal\u0101l", 
        "capital": "", 
        "population": "", 
        "population_proper": ""
    }, 
    {
        "city": "Ab\u016b Thaylah", 
        "lat": "25.5338", 
        "lng": "51.3048", 
        "country": "Qatar", 
        "iso2": "QA", 
        "admin_name": "Umm \u015eal\u0101l", 
        "capital": "", 
        "population": "", 
        "population_proper": ""
    }, 
    {
        "city": "Umm al \u2018Amad", 
        "lat": "25.4907", 
        "lng": "51.3977", 
        "country": "Qatar", 
        "iso2": "QA", 
        "admin_name": "Umm \u015eal\u0101l", 
        "capital": "", 
        "population": "", 
        "population_proper": ""
    }, 
    {
        "city": "Thu\u2018aylib", 
        "lat": "25.4184", 
        "lng": "51.4137", 
        "country": "Qatar", 
        "iso2": "QA", 
        "admin_name": "Umm \u015eal\u0101l", 
        "capital": "", 
        "population": "", 
        "population_proper": ""
    }, 
    {
        "city": "Al Khuray\u0163\u012by\u0101t", 
        "lat": "25.3884", 
        "lng": "51.4252", 
        "country": "Qatar", 
        "iso2": "QA", 
        "admin_name": "Umm \u015eal\u0101l", 
        "capital": "", 
        "population": "", 
        "population_proper": ""
    }, 
    {
        "city": "Umm Suwayyah", 
        "lat": "25.6480", 
        "lng": "51.4494", 
        "country": "Qatar", 
        "iso2": "QA", 
        "admin_name": "Az\u0327 Z\u0327a\u2018\u0101yin", 
        "capital": "", 
        "population": "", 
        "population_proper": ""
    }, 
    {
        "city": "Al Gh\u0101f", 
        "lat": "25.6273", 
        "lng": "51.4551", 
        "country": "Qatar", 
        "iso2": "QA", 
        "admin_name": "Az\u0327 Z\u0327a\u2018\u0101yin", 
        "capital": "", 
        "population": "", 
        "population_proper": ""
    }, 
    {
        "city": "Sumaysimah", 
        "lat": "25.5782", 
        "lng": "51.4832", 
        "country": "Qatar", 
        "iso2": "QA", 
        "admin_name": "Az\u0327 Z\u0327a\u2018\u0101yin", 
        "capital": "", 
        "population": "", 
        "population_proper": ""
    }, 
    {
        "city": "Al Kh\u012bsah", 
        "lat": "25.4164", 
        "lng": "51.4590", 
        "country": "Qatar", 
        "iso2": "QA", 
        "admin_name": "Az\u0327 Z\u0327a\u2018\u0101yin", 
        "capital": "", 
        "population": "", 
        "population_proper": ""
    }, 
    {
        "city": "Umm Qarn", 
        "lat": "25.5527", 
        "lng": "51.4310", 
        "country": "Qatar", 
        "iso2": "QA", 
        "admin_name": "Az\u0327 Z\u0327a\u2018\u0101yin", 
        "capital": "", 
        "population": "", 
        "population_proper": ""
    }, 
    {
        "city": "Al \u1e28amm\u0101mah", 
        "lat": "25.4462", 
        "lng": "51.4733", 
        "country": "Qatar", 
        "iso2": "QA", 
        "admin_name": "Az\u0327 Z\u0327a\u2018\u0101yin", 
        "capital": "", 
        "population": "", 
        "population_proper": ""
    }, 
    {
        "city": "Ar Ru\u1e29ayyah", 
        "lat": "25.6406", 
        "lng": "51.4631", 
        "country": "Qatar", 
        "iso2": "QA", 
        "admin_name": "Az\u0327 Z\u0327a\u2018\u0101yin", 
        "capital": "", 
        "population": "", 
        "population_proper": ""
    }, 
    {
        "city": "Tinbak ash Sharq\u012byah al Qad\u012bmah", 
        "lat": "25.6112", 
        "lng": "51.4723", 
        "country": "Qatar", 
        "iso2": "QA", 
        "admin_name": "Az\u0327 Z\u0327a\u2018\u0101yin", 
        "capital": "", 
        "population": "", 
        "population_proper": ""
    }, 
    {
        "city": "Ash Shaqr\u0101\u2019", 
        "lat": "24.8267", 
        "lng": "51.3934", 
        "country": "Qatar", 
        "iso2": "QA", 
        "admin_name": "Al Wakrah", 
        "capital": "", 
        "population": "", 
        "population_proper": ""
    }, 
    {
        "city": "Ar Ruways", 
        "lat": "26.1333", 
        "lng": "51.2167", 
        "country": "Qatar", 
        "iso2": "QA", 
        "admin_name": "Ash Sham\u0101l", 
        "capital": "", 
        "population": "", 
        "population_proper": ""
    }, 
    {
        "city": "Al Ghuwayr\u012byah", 
        "lat": "25.8300", 
        "lng": "51.2478", 
        "country": "Qatar", 
        "iso2": "QA", 
        "admin_name": "Al Khawr wa adh Dhakh\u012brah", 
        "capital": "", 
        "population": "", 
        "population_proper": ""
    }, 
    {
        "city": "Mukaynis", 
        "lat": "25.1224", 
        "lng": "51.2177", 
        "country": "Qatar", 
        "iso2": "QA", 
        "admin_name": "Ar Rayy\u0101n", 
        "capital": "", 
        "population": "", 
        "population_proper": ""
    }, 
    {
        "city": "Ab\u016b Nakhlah", 
        "lat": "25.1739", 
        "lng": "51.3173", 
        "country": "Qatar", 
        "iso2": "QA", 
        "admin_name": "Ar Rayy\u0101n", 
        "capital": "", 
        "population": "", 
        "population_proper": ""
    }, 
    {
        "city": "Al Kha\u0163\u0163\u012byah", 
        "lat": "25.4187", 
        "lng": "50.7876", 
        "country": "Qatar", 
        "iso2": "QA", 
        "admin_name": "Ar Rayy\u0101n", 
        "capital": "", 
        "population": "", 
        "population_proper": ""
    }, 
    {
        "city": "\u2018Ayn az Zughayn", 
        "lat": "25.3137", 
        "lng": "50.8884", 
        "country": "Qatar", 
        "iso2": "QA", 
        "admin_name": "Ar Rayy\u0101n", 
        "capital": "", 
        "population": "", 
        "population_proper": ""
    }, 
    {
        "city": "Dukh\u0101n", 
        "lat": "25.4249", 
        "lng": "50.7823", 
        "country": "Qatar", 
        "iso2": "QA", 
        "admin_name": "Ar Rayy\u0101n", 
        "capital": "", 
        "population": "", 
        "population_proper": ""
    }, 
    {
        "city": "\u2018Adhbah", 
        "lat": "26.0515", 
        "lng": "51.3187", 
        "country": "Qatar", 
        "iso2": "QA", 
        "admin_name": "Ash Sham\u0101l", 
        "capital": "", 
        "population": "", 
        "population_proper": ""
    }, 
    {
        "city": "Al Gh\u0101r\u012byah", 
        "lat": "26.0800", 
        "lng": "51.3575", 
        "country": "Qatar", 
        "iso2": "QA", 
        "admin_name": "Ash Sham\u0101l", 
        "capital": "", 
        "population": "", 
        "population_proper": ""
    }, 
    {
        "city": "\u2018Adhbah ash Sham\u0101l\u012byah", 
        "lat": "26.0710", 
        "lng": "51.3045", 
        "country": "Qatar", 
        "iso2": "QA", 
        "admin_name": "Ash Sham\u0101l", 
        "capital": "", 
        "population": "", 
        "population_proper": ""
    }, 
    {
        "city": "Az Zigh\u0101b", 
        "lat": "26.1078", 
        "lng": "51.2396", 
        "country": "Qatar", 
        "iso2": "QA", 
        "admin_name": "Ash Sham\u0101l", 
        "capital": "", 
        "population": "", 
        "population_proper": ""
    }, 
    {
        "city": "Al Qa\u2018\u0101b\u012byah", 
        "lat": "26.0697", 
        "lng": "51.2453", 
        "country": "Qatar", 
        "iso2": "QA", 
        "admin_name": "Ash Sham\u0101l", 
        "capital": "", 
        "population": "", 
        "population_proper": ""
    }, 
    {
        "city": "Al Wa\u2018b", 
        "lat": "26.1156", 
        "lng": "51.2260", 
        "country": "Qatar", 
        "iso2": "QA", 
        "admin_name": "Ash Sham\u0101l", 
        "capital": "", 
        "population": "", 
        "population_proper": ""
    }, 
    {
        "city": "Ash Shabh\u0101nah", 
        "lat": "25.2126", 
        "lng": "50.9369", 
        "country": "Qatar", 
        "iso2": "QA", 
        "admin_name": "Ar Rayy\u0101n", 
        "capital": "", 
        "population": "", 
        "population_proper": ""
    }, 
    {
        "city": "Umm B\u0101b", 
        "lat": "25.2098", 
        "lng": "50.8012", 
        "country": "Qatar", 
        "iso2": "QA", 
        "admin_name": "Ar Rayy\u0101n", 
        "capital": "", 
        "population": "", 
        "population_proper": ""
    }, 
    {
        "city": "Ghar\u0101fat ar Rayy\u0101n", 
        "lat": "25.2384", 
        "lng": "51.2462", 
        "country": "Qatar", 
        "iso2": "QA", 
        "admin_name": "Ar Rayy\u0101n", 
        "capital": "", 
        "population": "", 
        "population_proper": ""
    }
]